{
  "features": [
    {
      "geometry": {
        "coordinates": [
          20.995811,
          56.514029
        ],
        "type": "Point"
      },
      "properties": {
        "id": "10990147387",
        "name": "Aibe"
      },
      "type": "Feature"
    },
    {
      "geometry": {
        "coordinates": [
          20.9966999,
          56.5138069
        ],
        "type": "Point"
      },
      "properties": {
        "id": "10990125595",
        "name": "LaTS"
      },
      "type": "Feature"
    },
    {
      "geometry": {
        "coordinates": [
          20.9967385,
          56.2999687
        ],
        "type": "Point"
      },
      "properties": {
        "id": "1454369189",
        "name": "Smaragda"
      },
      "type": "Feature"
    },
    {
      "geometry": {
        "coordinates": [
          20.9985958,
          56.5122784
        ],
        "type": "Point"
      },
      "properties": {
        "id": "10979242563",
        "name": "LaTS"
      },
      "type": "Feature"
    },
    {
      "geometry": {
        "coordinates": [
          21.0007525,
          56.5089946
        ],
        "type": "Point"
      },
      "properties": {
        "id": "3646474063",
        "name": "Top!"
      },
      "type": "Feature"
    },
    {
      "geometry": {
        "coordinates": [
          21.0017673,
          56.5009454
        ],
        "type": "Point"
      },
      "properties": {
        "id": "12716150477",
        "name": "Spar"
      },
      "type": "Feature"
    },
    {
      "geometry": {
        "coordinates": [
          21.0025926,
          56.4935348
        ],
        "type": "Point"
      },
      "properties": {
        "id": "10988972401",
        "name": "Lats"
      },
      "type": "Feature"
    },
    {
      "geometry": {
        "coordinates": [
          21.0030802,
          56.5315206
        ],
        "type": "Point"
      },
      "properties": {
        "id": "894297413",
        "name": "top!"
      },
      "type": "Feature"
    },
    {
      "geometry": {
        "coordinates": [
          21.0033986,
          56.486003
        ],
        "type": "Point"
      },
      "properties": {
        "id": "4435788015",
        "name": "Saime"
      },
      "type": "Feature"
    },
    {
      "geometry": {
        "coordinates": [
          21.0034362,
          56.5061386
        ],
        "type": "Point"
      },
      "properties": {
        "id": "4435790344",
        "name": "Top!"
      },
      "type": "Feature"
    },
    {
      "geometry": {
        "coordinates": [
          21.0034556,
          56.4917323
        ],
        "type": "Point"
      },
      "properties": {
        "id": "1184790924",
        "name": "Maxima XX"
      },
      "type": "Feature"
    },
    {
      "geometry": {
        "coordinates": [
          21.0038054,
          56.4896344
        ],
        "type": "Point"
      },
      "properties": {
        "id": "1395911926",
        "name": "Mini top!"
      },
      "type": "Feature"
    },
    {
      "geometry": {
        "coordinates": [
          21.0052405,
          56.4870333
        ],
        "type": "Point"
      },
      "properties": {
        "id": "6769066266",
        "name": "Mego"
      },
      "type": "Feature"
    },
    {
      "geometry": {
        "coordinates": [
          21.0065957,
          56.5108934
        ],
        "type": "Point"
      },
      "properties": {
        "id": "1357605055",
        "name": "top!"
      },
      "type": "Feature"
    },
    {
      "geometry": {
        "coordinates": [
          21.006941,
          56.5206785
        ],
        "type": "Point"
      },
      "properties": {
        "id": "894297578",
        "name": ""
      },
      "type": "Feature"
    },
    {
      "geometry": {
        "coordinates": [
          21.0071408,
          56.5094501
        ],
        "type": "Point"
      },
      "properties": {
        "id": "10981875918",
        "name": "Fix price"
      },
      "type": "Feature"
    },
    {
      "geometry": {
        "coordinates": [
          21.0072045,
          56.5206181
        ],
        "type": "Point"
      },
      "properties": {
        "id": "897959254",
        "name": ""
      },
      "type": "Feature"
    },
    {
      "geometry": {
        "coordinates": [
          21.008104,
          56.5543779
        ],
        "type": "Point"
      },
      "properties": {
        "id": "4184459511",
        "name": "Ziemeļu mols"
      },
      "type": "Feature"
    },
    {
      "geometry": {
        "coordinates": [
          21.0095693,
          56.5115356
        ],
        "type": "Point"
      },
      "properties": {
        "id": "9919379310",
        "name": "Alkoutlet"
      },
      "type": "Feature"
    },
    {
      "geometry": {
        "coordinates": [
          21.0103509,
          56.5039147
        ],
        "type": "Point"
      },
      "properties": {
        "id": "2973152672",
        "name": "Maxima X"
      },
      "type": "Feature"
    },
    {
      "geometry": {
        "coordinates": [
          21.0106693,
          56.5180839
        ],
        "type": "Point"
      },
      "properties": {
        "id": "1357648628",
        "name": "LaTS"
      },
      "type": "Feature"
    },
    {
      "geometry": {
        "coordinates": [
          21.0107917,
          56.507391
        ],
        "type": "Point"
      },
      "properties": {
        "id": "1395913432",
        "name": "Maxima X"
      },
      "type": "Feature"
    },
    {
      "geometry": {
        "coordinates": [
          21.0111371,
          56.5050977
        ],
        "type": "Point"
      },
      "properties": {
        "id": "6715426275",
        "name": "top!"
      },
      "type": "Feature"
    },
    {
      "geometry": {
        "coordinates": [
          21.0114231,
          56.5323111
        ],
        "type": "Point"
      },
      "properties": {
        "id": "10744868505",
        "name": "Mego"
      },
      "type": "Feature"
    },
    {
      "geometry": {
        "coordinates": [
          21.0128304,
          56.5341729
        ],
        "type": "Point"
      },
      "properties": {
        "id": "1357935175",
        "name": "Viada"
      },
      "type": "Feature"
    },
    {
      "geometry": {
        "coordinates": [
          21.0144398,
          56.484527
        ],
        "type": "Point"
      },
      "properties": {
        "id": "9178848724",
        "name": "Lidl"
      },
      "type": "Feature"
    },
    {
      "geometry": {
        "coordinates": [
          21.0152156,
          56.5154822
        ],
        "type": "Point"
      },
      "properties": {
        "id": "12716059014",
        "name": "Spar Express"
      },
      "type": "Feature"
    },
    {
      "geometry": {
        "coordinates": [
          21.0153851,
          56.5521538
        ],
        "type": "Point"
      },
      "properties": {
        "id": "1357903337",
        "name": "Liāna"
      },
      "type": "Feature"
    },
    {
      "geometry": {
        "coordinates": [
          21.0163722,
          56.5532944
        ],
        "type": "Point"
      },
      "properties": {
        "id": "4184453136",
        "name": "top!"
      },
      "type": "Feature"
    },
    {
      "geometry": {
        "coordinates": [
          21.0166156,
          56.5086162
        ],
        "type": "Point"
      },
      "properties": {
        "id": "2584740266",
        "name": "top!"
      },
      "type": "Feature"
    },
    {
      "geometry": {
        "coordinates": [
          21.0166471,
          56.5032974
        ],
        "type": "Point"
      },
      "properties": {
        "id": "899356914",
        "name": "Aibe"
      },
      "type": "Feature"
    },
    {
      "geometry": {
        "coordinates": [
          21.0167319,
          56.5539463
        ],
        "type": "Point"
      },
      "properties": {
        "id": "4184472202",
        "name": "Rita"
      },
      "type": "Feature"
    },
    {
      "geometry": {
        "coordinates": [
          21.0167809,
          56.5111746
        ],
        "type": "Point"
      },
      "properties": {
        "id": "3646335732",
        "name": "Rimi"
      },
      "type": "Feature"
    },
    {
      "geometry": {
        "coordinates": [
          21.0167903,
          56.5539411
        ],
        "type": "Point"
      },
      "properties": {
        "id": "4169956306",
        "name": "Rita"
      },
      "type": "Feature"
    },
    {
      "geometry": {
        "coordinates": [
          21.0169518,
          56.546373
        ],
        "type": "Point"
      },
      "properties": {
        "id": "3655878550",
        "name": "Naktiņš"
      },
      "type": "Feature"
    },
    {
      "geometry": {
        "coordinates": [
          21.0174776,
          56.5537969
        ],
        "type": "Point"
      },
      "properties": {
        "id": "12404912403",
        "name": ""
      },
      "type": "Feature"
    },
    {
      "geometry": {
        "coordinates": [
          21.0179617,
          56.514972
        ],
        "type": "Point"
      },
      "properties": {
        "id": "1324128041",
        "name": "Rimi"
      },
      "type": "Feature"
    },
    {
      "geometry": {
        "coordinates": [
          21.0187343,
          56.5235076
        ],
        "type": "Point"
      },
      "properties": {
        "id": "10064051887",
        "name": "Mini top!"
      },
      "type": "Feature"
    },
    {
      "geometry": {
        "coordinates": [
          21.0190284,
          56.5024796
        ],
        "type": "Point"
      },
      "properties": {
        "id": "10976666901",
        "name": "Elvi"
      },
      "type": "Feature"
    },
    {
      "geometry": {
        "coordinates": [
          21.0198979,
          56.5039644
        ],
        "type": "Point"
      },
      "properties": {
        "id": "899356884",
        "name": "Alvīne"
      },
      "type": "Feature"
    },
    {
      "geometry": {
        "coordinates": [
          21.0211676,
          56.492831
        ],
        "type": "Point"
      },
      "properties": {
        "id": "3646554047",
        "name": "Maxima X"
      },
      "type": "Feature"
    },
    {
      "geometry": {
        "coordinates": [
          21.0246489,
          56.5145167
        ],
        "type": "Point"
      },
      "properties": {
        "id": "892307343",
        "name": ""
      },
      "type": "Feature"
    },
    {
      "geometry": {
        "coordinates": [
          21.0280089,
          56.5248525
        ],
        "type": "Point"
      },
      "properties": {
        "id": "897590614",
        "name": ""
      },
      "type": "Feature"
    },
    {
      "geometry": {
        "coordinates": [
          21.0280686,
          56.5220763
        ],
        "type": "Point"
      },
      "properties": {
        "id": "10578613744",
        "name": "Spar"
      },
      "type": "Feature"
    },
    {
      "geometry": {
        "coordinates": [
          21.0290114,
          56.5362305
        ],
        "type": "Point"
      },
      "properties": {
        "id": "12329606501",
        "name": "Primula"
      },
      "type": "Feature"
    },
    {
      "geometry": {
        "coordinates": [
          21.0366794,
          56.5526469
        ],
        "type": "Point"
      },
      "properties": {
        "id": "890050060",
        "name": "Naktiņš"
      },
      "type": "Feature"
    },
    {
      "geometry": {
        "coordinates": [
          21.0393901,
          56.5545393
        ],
        "type": "Point"
      },
      "properties": {
        "id": "12405451911",
        "name": "Aibe"
      },
      "type": "Feature"
    },
    {
      "geometry": {
        "coordinates": [
          21.0418746,
          56.5549365
        ],
        "type": "Point"
      },
      "properties": {
        "id": "12311829372",
        "name": "LaTS"
      },
      "type": "Feature"
    },
    {
      "geometry": {
        "coordinates": [
          21.042461,
          56.5539734
        ],
        "type": "Point"
      },
      "properties": {
        "id": "4842270131",
        "name": "top!"
      },
      "type": "Feature"
    },
    {
      "geometry": {
        "coordinates": [
          21.06051,
          55.91782
        ],
        "type": "Point"
      },
      "properties": {
        "id": "512545571",
        "name": "Prekybos centras"
      },
      "type": "Feature"
    },
    {
      "geometry": {
        "coordinates": [
          21.0630961,
          55.9122213
        ],
        "type": "Point"
      },
      "properties": {
        "id": "2643255054",
        "name": "Aibė"
      },
      "type": "Feature"
    },
    {
      "geometry": {
        "coordinates": [
          21.0656754,
          55.9158317
        ],
        "type": "Point"
      },
      "properties": {
        "id": "5758317077",
        "name": "Rimi"
      },
      "type": "Feature"
    },
    {
      "geometry": {
        "coordinates": [
          21.0658672,
          55.9149112
        ],
        "type": "Point"
      },
      "properties": {
        "id": "512541945",
        "name": "Proga"
      },
      "type": "Feature"
    },
    {
      "geometry": {
        "coordinates": [
          21.0662017,
          55.9181384
        ],
        "type": "Point"
      },
      "properties": {
        "id": "13174854198",
        "name": "Aibė"
      },
      "type": "Feature"
    },
    {
      "geometry": {
        "coordinates": [
          21.0684662,
          56.5463647
        ],
        "type": "Point"
      },
      "properties": {
        "id": "13808026535",
        "name": "mini top!"
      },
      "type": "Feature"
    },
    {
      "geometry": {
        "coordinates": [
          21.0701085,
          55.92355
        ],
        "type": "Point"
      },
      "properties": {
        "id": "1251731166",
        "name": "Aibė"
      },
      "type": "Feature"
    },
    {
      "geometry": {
        "coordinates": [
          21.0704385,
          55.9154841
        ],
        "type": "Point"
      },
      "properties": {
        "id": "704861695",
        "name": "Maxima X"
      },
      "type": "Feature"
    },
    {
      "geometry": {
        "coordinates": [
          21.0719617,
          55.9251826
        ],
        "type": "Point"
      },
      "properties": {
        "id": "1251731163",
        "name": "IKI ECO Palanga"
      },
      "type": "Feature"
    },
    {
      "geometry": {
        "coordinates": [
          21.0726931,
          55.9570274
        ],
        "type": "Point"
      },
      "properties": {
        "id": "5743816171",
        "name": ""
      },
      "type": "Feature"
    },
    {
      "geometry": {
        "coordinates": [
          21.0727745,
          55.919118
        ],
        "type": "Point"
      },
      "properties": {
        "id": "5759306230",
        "name": "Čia"
      },
      "type": "Feature"
    },
    {
      "geometry": {
        "coordinates": [
          21.072861,
          55.9582774
        ],
        "type": "Point"
      },
      "properties": {
        "id": "13167426606",
        "name": "Aibė"
      },
      "type": "Feature"
    },
    {
      "geometry": {
        "coordinates": [
          21.0735946,
          56.6627765
        ],
        "type": "Point"
      },
      "properties": {
        "id": "4952197885",
        "name": ""
      },
      "type": "Feature"
    },
    {
      "geometry": {
        "coordinates": [
          21.0755996,
          55.9259415
        ],
        "type": "Point"
      },
      "properties": {
        "id": "885407920",
        "name": "Aibė"
      },
      "type": "Feature"
    },
    {
      "geometry": {
        "coordinates": [
          21.075642,
          55.9328811
        ],
        "type": "Point"
      },
      "properties": {
        "id": "1251722550",
        "name": ""
      },
      "type": "Feature"
    },
    {
      "geometry": {
        "coordinates": [
          21.0763319,
          55.8057501
        ],
        "type": "Point"
      },
      "properties": {
        "id": "8936414387",
        "name": "Parduotuvė"
      },
      "type": "Feature"
    },
    {
      "geometry": {
        "coordinates": [
          21.077883,
          56.0185795
        ],
        "type": "Point"
      },
      "properties": {
        "id": "3602177633",
        "name": "Ošia"
      },
      "type": "Feature"
    },
    {
      "geometry": {
        "coordinates": [
          21.0782946,
          56.0324834
        ],
        "type": "Point"
      },
      "properties": {
        "id": "885382360",
        "name": "Banga"
      },
      "type": "Feature"
    },
    {
      "geometry": {
        "coordinates": [
          21.0784968,
          56.7487889
        ],
        "type": "Point"
      },
      "properties": {
        "id": "9921077320",
        "name": "Kultūrbode"
      },
      "type": "Feature"
    },
    {
      "geometry": {
        "coordinates": [
          21.0785791,
          56.0167467
        ],
        "type": "Point"
      },
      "properties": {
        "id": "8942087368",
        "name": "Aibė"
      },
      "type": "Feature"
    },
    {
      "geometry": {
        "coordinates": [
          21.0789219,
          56.021808
        ],
        "type": "Point"
      },
      "properties": {
        "id": "885382623",
        "name": "Parduotuvė"
      },
      "type": "Feature"
    },
    {
      "geometry": {
        "coordinates": [
          21.079181,
          56.0242857
        ],
        "type": "Point"
      },
      "properties": {
        "id": "885382233",
        "name": "Žirnis"
      },
      "type": "Feature"
    },
    {
      "geometry": {
        "coordinates": [
          21.0799519,
          55.9178047
        ],
        "type": "Point"
      },
      "properties": {
        "id": "2144339771",
        "name": "IKI ECO Turgus"
      },
      "type": "Feature"
    },
    {
      "geometry": {
        "coordinates": [
          21.0799951,
          56.0307178
        ],
        "type": "Point"
      },
      "properties": {
        "id": "3582022793",
        "name": "Aibė"
      },
      "type": "Feature"
    },
    {
      "geometry": {
        "coordinates": [
          21.0800385,
          56.0268574
        ],
        "type": "Point"
      },
      "properties": {
        "id": "3581925894",
        "name": "Volungė"
      },
      "type": "Feature"
    },
    {
      "geometry": {
        "coordinates": [
          21.0808798,
          55.9198233
        ],
        "type": "Point"
      },
      "properties": {
        "id": "2144339772",
        "name": "IKI Palanga"
      },
      "type": "Feature"
    },
    {
      "geometry": {
        "coordinates": [
          21.0808927,
          56.0298236
        ],
        "type": "Point"
      },
      "properties": {
        "id": "2419668452",
        "name": "Mini RIMI Prekybos Centras"
      },
      "type": "Feature"
    },
    {
      "geometry": {
        "coordinates": [
          21.0842353,
          56.0296332
        ],
        "type": "Point"
      },
      "properties": {
        "id": "3581971453",
        "name": "Ūkinės prekės"
      },
      "type": "Feature"
    },
    {
      "geometry": {
        "coordinates": [
          21.0846909,
          56.5482805
        ],
        "type": "Point"
      },
      "properties": {
        "id": "11023556892",
        "name": "Top!"
      },
      "type": "Feature"
    },
    {
      "geometry": {
        "coordinates": [
          21.0847266,
          56.0303583
        ],
        "type": "Point"
      },
      "properties": {
        "id": "2001813337",
        "name": "IKI Šventoji"
      },
      "type": "Feature"
    },
    {
      "geometry": {
        "coordinates": [
          21.0849977,
          56.029308
        ],
        "type": "Point"
      },
      "properties": {
        "id": "3603262107",
        "name": "Gėrimų parduotuvė"
      },
      "type": "Feature"
    },
    {
      "geometry": {
        "coordinates": [
          21.0866565,
          55.9164499
        ],
        "type": "Point"
      },
      "properties": {
        "id": "4233386432",
        "name": "Aibė"
      },
      "type": "Feature"
    },
    {
      "geometry": {
        "coordinates": [
          21.0881166,
          56.0245096
        ],
        "type": "Point"
      },
      "properties": {
        "id": "885382002",
        "name": "Kiras"
      },
      "type": "Feature"
    },
    {
      "geometry": {
        "coordinates": [
          21.0920804,
          56.3748874
        ],
        "type": "Point"
      },
      "properties": {
        "id": "4035724169",
        "name": "Auda"
      },
      "type": "Feature"
    },
    {
      "geometry": {
        "coordinates": [
          21.0945811,
          55.7707388
        ],
        "type": "Point"
      },
      "properties": {
        "id": "1415660003",
        "name": "Parduotuvė - kavinė"
      },
      "type": "Feature"
    },
    {
      "geometry": {
        "coordinates": [
          21.1179465,
          55.87151
        ],
        "type": "Point"
      },
      "properties": {
        "id": "6992502019",
        "name": "Aibė"
      },
      "type": "Feature"
    },
    {
      "geometry": {
        "coordinates": [
          21.117962,
          56.0472108
        ],
        "type": "Point"
      },
      "properties": {
        "id": "4179530783",
        "name": ""
      },
      "type": "Feature"
    },
    {
      "geometry": {
        "coordinates": [
          21.1194554,
          55.7185081
        ],
        "type": "Point"
      },
      "properties": {
        "id": "2144190842",
        "name": "IKI EXPRESS Janonis"
      },
      "type": "Feature"
    },
    {
      "geometry": {
        "coordinates": [
          21.1253395,
          55.7287918
        ],
        "type": "Point"
      },
      "properties": {
        "id": "1029995742",
        "name": "IKI Universitetas"
      },
      "type": "Feature"
    },
    {
      "geometry": {
        "coordinates": [
          21.1274483,
          55.7177562
        ],
        "type": "Point"
      },
      "properties": {
        "id": "2141605638",
        "name": "IKI EXPRESS Herkaus Manto"
      },
      "type": "Feature"
    },
    {
      "geometry": {
        "coordinates": [
          21.1290311,
          55.7145838
        ],
        "type": "Point"
      },
      "properties": {
        "id": "3599138108",
        "name": "Maxima X"
      },
      "type": "Feature"
    },
    {
      "geometry": {
        "coordinates": [
          21.129937,
          55.7240818
        ],
        "type": "Point"
      },
      "properties": {
        "id": "4472565091",
        "name": "Aibė"
      },
      "type": "Feature"
    },
    {
      "geometry": {
        "coordinates": [
          21.1299592,
          55.7514746
        ],
        "type": "Point"
      },
      "properties": {
        "id": "1031069928",
        "name": "RIMI Hypermarket"
      },
      "type": "Feature"
    },
    {
      "geometry": {
        "coordinates": [
          21.1343405,
          55.7384445
        ],
        "type": "Point"
      },
      "properties": {
        "id": "2150606395",
        "name": "IKI CENTO Klaipėda"
      },
      "type": "Feature"
    },
    {
      "geometry": {
        "coordinates": [
          21.1347822,
          55.7086572
        ],
        "type": "Point"
      },
      "properties": {
        "id": "2141605639",
        "name": "IKI EXPRESS Pajūrio"
      },
      "type": "Feature"
    },
    {
      "geometry": {
        "coordinates": [
          21.1369852,
          55.774842
        ],
        "type": "Point"
      },
      "properties": {
        "id": "6989019533",
        "name": "Express Market"
      },
      "type": "Feature"
    },
    {
      "geometry": {
        "coordinates": [
          21.1376143,
          55.706526
        ],
        "type": "Point"
      },
      "properties": {
        "id": "8569487026",
        "name": "Aibė"
      },
      "type": "Feature"
    },
    {
      "geometry": {
        "coordinates": [
          21.1389021,
          55.6963478
        ],
        "type": "Point"
      },
      "properties": {
        "id": "6912757478",
        "name": "Vajulitas"
      },
      "type": "Feature"
    },
    {
      "geometry": {
        "coordinates": [
          21.1397742,
          56.6771279
        ],
        "type": "Point"
      },
      "properties": {
        "id": "9863840596",
        "name": "Lats"
      },
      "type": "Feature"
    },
    {
      "geometry": {
        "coordinates": [
          21.1413786,
          55.7276283
        ],
        "type": "Point"
      },
      "properties": {
        "id": "13332015569",
        "name": "Rimi Hyper"
      },
      "type": "Feature"
    },
    {
      "geometry": {
        "coordinates": [
          21.1418936,
          55.7045707
        ],
        "type": "Point"
      },
      "properties": {
        "id": "13399638791",
        "name": "Youmame"
      },
      "type": "Feature"
    },
    {
      "geometry": {
        "coordinates": [
          21.1425623,
          55.7040398
        ],
        "type": "Point"
      },
      "properties": {
        "id": "1804774924",
        "name": "Maxima"
      },
      "type": "Feature"
    },
    {
      "geometry": {
        "coordinates": [
          21.1469308,
          55.7064601
        ],
        "type": "Point"
      },
      "properties": {
        "id": "5821817515",
        "name": "Čia"
      },
      "type": "Feature"
    },
    {
      "geometry": {
        "coordinates": [
          21.1469879,
          55.6982017
        ],
        "type": "Point"
      },
      "properties": {
        "id": "11515803204",
        "name": "Iki"
      },
      "type": "Feature"
    },
    {
      "geometry": {
        "coordinates": [
          21.1477454,
          55.7524554
        ],
        "type": "Point"
      },
      "properties": {
        "id": "1373010039",
        "name": ""
      },
      "type": "Feature"
    },
    {
      "geometry": {
        "coordinates": [
          21.149436,
          55.6982609
        ],
        "type": "Point"
      },
      "properties": {
        "id": "5749601306",
        "name": "Grūstė"
      },
      "type": "Feature"
    },
    {
      "geometry": {
        "coordinates": [
          21.149894,
          55.6803323
        ],
        "type": "Point"
      },
      "properties": {
        "id": "2392034711",
        "name": ""
      },
      "type": "Feature"
    },
    {
      "geometry": {
        "coordinates": [
          21.1512176,
          55.68234
        ],
        "type": "Point"
      },
      "properties": {
        "id": "4374136381",
        "name": "Grūstė"
      },
      "type": "Feature"
    },
    {
      "geometry": {
        "coordinates": [
          21.1531663,
          55.6799431
        ],
        "type": "Point"
      },
      "properties": {
        "id": "8603473856",
        "name": "Aibė"
      },
      "type": "Feature"
    },
    {
      "geometry": {
        "coordinates": [
          21.1537095,
          55.7221936
        ],
        "type": "Point"
      },
      "properties": {
        "id": "10011808226",
        "name": "Maxima XX"
      },
      "type": "Feature"
    },
    {
      "geometry": {
        "coordinates": [
          21.1540229,
          55.6759504
        ],
        "type": "Point"
      },
      "properties": {
        "id": "4964581822",
        "name": "Aibė"
      },
      "type": "Feature"
    },
    {
      "geometry": {
        "coordinates": [
          21.1541667,
          55.7097035
        ],
        "type": "Point"
      },
      "properties": {
        "id": "1517514408",
        "name": "Maxima X"
      },
      "type": "Feature"
    },
    {
      "geometry": {
        "coordinates": [
          21.1549874,
          55.6783526
        ],
        "type": "Point"
      },
      "properties": {
        "id": "2150606399",
        "name": "Maxima"
      },
      "type": "Feature"
    },
    {
      "geometry": {
        "coordinates": [
          21.1563532,
          55.6930219
        ],
        "type": "Point"
      },
      "properties": {
        "id": "5763997724",
        "name": "Maxima XXX"
      },
      "type": "Feature"
    },
    {
      "geometry": {
        "coordinates": [
          21.1564308,
          55.6787306
        ],
        "type": "Point"
      },
      "properties": {
        "id": "2392031360",
        "name": "IKI"
      },
      "type": "Feature"
    },
    {
      "geometry": {
        "coordinates": [
          21.1567413,
          55.6869596
        ],
        "type": "Point"
      },
      "properties": {
        "id": "1031471749",
        "name": "RIMI Hypermarket"
      },
      "type": "Feature"
    },
    {
      "geometry": {
        "coordinates": [
          21.1568908,
          56.5321217
        ],
        "type": "Point"
      },
      "properties": {
        "id": "3544631570",
        "name": "Mini top!"
      },
      "type": "Feature"
    },
    {
      "geometry": {
        "coordinates": [
          21.1593454,
          55.6845166
        ],
        "type": "Point"
      },
      "properties": {
        "id": "1103090760",
        "name": "Norfa XXL"
      },
      "type": "Feature"
    },
    {
      "geometry": {
        "coordinates": [
          21.1611857,
          55.7001697
        ],
        "type": "Point"
      },
      "properties": {
        "id": "2497122925",
        "name": "Maxima"
      },
      "type": "Feature"
    },
    {
      "geometry": {
        "coordinates": [
          21.1612568,
          55.7085928
        ],
        "type": "Point"
      },
      "properties": {
        "id": "5692320007",
        "name": "Aibė"
      },
      "type": "Feature"
    },
    {
      "geometry": {
        "coordinates": [
          21.1627793,
          55.6927561
        ],
        "type": "Point"
      },
      "properties": {
        "id": "4679913812",
        "name": "Narvija"
      },
      "type": "Feature"
    },
    {
      "geometry": {
        "coordinates": [
          21.164618,
          55.7072155
        ],
        "type": "Point"
      },
      "properties": {
        "id": "8509579444",
        "name": "Mere"
      },
      "type": "Feature"
    },
    {
      "geometry": {
        "coordinates": [
          21.1653721,
          56.5354617
        ],
        "type": "Point"
      },
      "properties": {
        "id": "3604566402",
        "name": "Tev"
      },
      "type": "Feature"
    },
    {
      "geometry": {
        "coordinates": [
          21.1665509,
          55.6790347
        ],
        "type": "Point"
      },
      "properties": {
        "id": "8603473880",
        "name": "Express Market"
      },
      "type": "Feature"
    },
    {
      "geometry": {
        "coordinates": [
          21.1672518,
          56.5351813
        ],
        "type": "Point"
      },
      "properties": {
        "id": "3727808131",
        "name": "Konditorija \"Ducis\""
      },
      "type": "Feature"
    },
    {
      "geometry": {
        "coordinates": [
          21.1674522,
          55.6793668
        ],
        "type": "Point"
      },
      "properties": {
        "id": "2883827717",
        "name": "Grūstė"
      },
      "type": "Feature"
    },
    {
      "geometry": {
        "coordinates": [
          21.1690419,
          55.6755973
        ],
        "type": "Point"
      },
      "properties": {
        "id": "1201551243",
        "name": "IKI Eglė"
      },
      "type": "Feature"
    },
    {
      "geometry": {
        "coordinates": [
          21.176568,
          55.9388081
        ],
        "type": "Point"
      },
      "properties": {
        "id": "10127888395",
        "name": "Aibė"
      },
      "type": "Feature"
    },
    {
      "geometry": {
        "coordinates": [
          21.1773146,
          55.93834
        ],
        "type": "Point"
      },
      "properties": {
        "id": "1251779902",
        "name": ""
      },
      "type": "Feature"
    },
    {
      "geometry": {
        "coordinates": [
          21.1775566,
          56.5342993
        ],
        "type": "Point"
      },
      "properties": {
        "id": "11903085475",
        "name": "LaTS"
      },
      "type": "Feature"
    },
    {
      "geometry": {
        "coordinates": [
          21.1791828,
          56.8888357
        ],
        "type": "Point"
      },
      "properties": {
        "id": "1715241305",
        "name": "Mini top!"
      },
      "type": "Feature"
    },
    {
      "geometry": {
        "coordinates": [
          21.1792327,
          55.684172
        ],
        "type": "Point"
      },
      "properties": {
        "id": "4357257599",
        "name": "Maisto prekių ir alkoholio parduotuvė"
      },
      "type": "Feature"
    },
    {
      "geometry": {
        "coordinates": [
          21.1823885,
          55.6921122
        ],
        "type": "Point"
      },
      "properties": {
        "id": "4283934033",
        "name": "Maxima Bazė XXX"
      },
      "type": "Feature"
    },
    {
      "geometry": {
        "coordinates": [
          21.187995,
          56.5356325
        ],
        "type": "Point"
      },
      "properties": {
        "id": "11901152597",
        "name": "LaTS"
      },
      "type": "Feature"
    },
    {
      "geometry": {
        "coordinates": [
          21.1892435,
          56.8871821
        ],
        "type": "Point"
      },
      "properties": {
        "id": "7573147385",
        "name": "Top!"
      },
      "type": "Feature"
    },
    {
      "geometry": {
        "coordinates": [
          21.1928858,
          55.7318428
        ],
        "type": "Point"
      },
      "properties": {
        "id": "3616161995",
        "name": ""
      },
      "type": "Feature"
    },
    {
      "geometry": {
        "coordinates": [
          21.1963606,
          56.697611
        ],
        "type": "Point"
      },
      "properties": {
        "id": "9709920902",
        "name": "Mini top!"
      },
      "type": "Feature"
    },
    {
      "geometry": {
        "coordinates": [
          21.1965163,
          56.6977677
        ],
        "type": "Point"
      },
      "properties": {
        "id": "9709920900",
        "name": "Aibe"
      },
      "type": "Feature"
    },
    {
      "geometry": {
        "coordinates": [
          21.2004259,
          56.4773485
        ],
        "type": "Point"
      },
      "properties": {
        "id": "13319015090",
        "name": "Mini top!"
      },
      "type": "Feature"
    },
    {
      "geometry": {
        "coordinates": [
          21.2034829,
          56.88332
        ],
        "type": "Point"
      },
      "properties": {
        "id": "9025863774",
        "name": "Muižkalniņi"
      },
      "type": "Feature"
    },
    {
      "geometry": {
        "coordinates": [
          21.2191172,
          55.696712
        ],
        "type": "Point"
      },
      "properties": {
        "id": "13116727110",
        "name": ""
      },
      "type": "Feature"
    },
    {
      "geometry": {
        "coordinates": [
          21.2217613,
          55.8683336
        ],
        "type": "Point"
      },
      "properties": {
        "id": "2191164898",
        "name": ""
      },
      "type": "Feature"
    },
    {
      "geometry": {
        "coordinates": [
          21.225454,
          55.9023015
        ],
        "type": "Point"
      },
      "properties": {
        "id": "10127855789",
        "name": "Aibė"
      },
      "type": "Feature"
    },
    {
      "geometry": {
        "coordinates": [
          21.2342092,
          55.894998
        ],
        "type": "Point"
      },
      "properties": {
        "id": "9028237292",
        "name": "Rimi Super"
      },
      "type": "Feature"
    },
    {
      "geometry": {
        "coordinates": [
          21.2430315,
          55.8886632
        ],
        "type": "Point"
      },
      "properties": {
        "id": "2144190841",
        "name": "IKI"
      },
      "type": "Feature"
    },
    {
      "geometry": {
        "coordinates": [
          21.2443997,
          55.8969657
        ],
        "type": "Point"
      },
      "properties": {
        "id": "941762591",
        "name": "Trevena"
      },
      "type": "Feature"
    },
    {
      "geometry": {
        "coordinates": [
          21.2506699,
          55.9019505
        ],
        "type": "Point"
      },
      "properties": {
        "id": "9853163375",
        "name": "Aibė"
      },
      "type": "Feature"
    },
    {
      "geometry": {
        "coordinates": [
          21.2525252,
          55.8862671
        ],
        "type": "Point"
      },
      "properties": {
        "id": "5822316318",
        "name": "Aibė"
      },
      "type": "Feature"
    },
    {
      "geometry": {
        "coordinates": [
          21.2560582,
          56.0231671
        ],
        "type": "Point"
      },
      "properties": {
        "id": "2370272854",
        "name": "Rimona"
      },
      "type": "Feature"
    },
    {
      "geometry": {
        "coordinates": [
          21.2564493,
          56.0231324
        ],
        "type": "Point"
      },
      "properties": {
        "id": "2370272855",
        "name": "Vaiva"
      },
      "type": "Feature"
    },
    {
      "geometry": {
        "coordinates": [
          21.2617893,
          55.8940267
        ],
        "type": "Point"
      },
      "properties": {
        "id": "941762603",
        "name": "Maxima X"
      },
      "type": "Feature"
    },
    {
      "geometry": {
        "coordinates": [
          21.2821208,
          55.7887774
        ],
        "type": "Point"
      },
      "properties": {
        "id": "12119122012",
        "name": "Aibė"
      },
      "type": "Feature"
    },
    {
      "geometry": {
        "coordinates": [
          21.3068431,
          55.7163712
        ],
        "type": "Point"
      },
      "properties": {
        "id": "4783813122",
        "name": ""
      },
      "type": "Feature"
    },
    {
      "geometry": {
        "coordinates": [
          21.3138936,
          56.1896492
        ],
        "type": "Point"
      },
      "properties": {
        "id": "13138216593",
        "name": "Aibė"
      },
      "type": "Feature"
    },
    {
      "geometry": {
        "coordinates": [
          21.3440768,
          55.829306
        ],
        "type": "Point"
      },
      "properties": {
        "id": "5822314922",
        "name": "Aibė"
      },
      "type": "Feature"
    },
    {
      "geometry": {
        "coordinates": [
          21.3600537,
          55.6767017
        ],
        "type": "Point"
      },
      "properties": {
        "id": "720758388",
        "name": "E. Balsienės parduotuvė"
      },
      "type": "Feature"
    },
    {
      "geometry": {
        "coordinates": [
          21.3686067,
          56.5892675
        ],
        "type": "Point"
      },
      "properties": {
        "id": "9105110824",
        "name": "Top!"
      },
      "type": "Feature"
    },
    {
      "geometry": {
        "coordinates": [
          21.3767783,
          55.7943228
        ],
        "type": "Point"
      },
      "properties": {
        "id": "4915099822",
        "name": ""
      },
      "type": "Feature"
    },
    {
      "geometry": {
        "coordinates": [
          21.3838367,
          55.7122942
        ],
        "type": "Point"
      },
      "properties": {
        "id": "12804311506",
        "name": "Maxima XX"
      },
      "type": "Feature"
    },
    {
      "geometry": {
        "coordinates": [
          21.3852375,
          55.7176121
        ],
        "type": "Point"
      },
      "properties": {
        "id": "8240907478",
        "name": "Rimi Super"
      },
      "type": "Feature"
    },
    {
      "geometry": {
        "coordinates": [
          21.3865942,
          57.0052883
        ],
        "type": "Point"
      },
      "properties": {
        "id": "10558395276",
        "name": "LaTS"
      },
      "type": "Feature"
    },
    {
      "geometry": {
        "coordinates": [
          21.3942943,
          55.7175303
        ],
        "type": "Point"
      },
      "properties": {
        "id": "5831980562",
        "name": "Aibė"
      },
      "type": "Feature"
    },
    {
      "geometry": {
        "coordinates": [
          21.3943862,
          55.7167156
        ],
        "type": "Point"
      },
      "properties": {
        "id": "5831980563",
        "name": "Vasara"
      },
      "type": "Feature"
    },
    {
      "geometry": {
        "coordinates": [
          21.4053369,
          56.0714494
        ],
        "type": "Point"
      },
      "properties": {
        "id": "2370272857",
        "name": "Aibė"
      },
      "type": "Feature"
    },
    {
      "geometry": {
        "coordinates": [
          21.4072328,
          55.7475236
        ],
        "type": "Point"
      },
      "properties": {
        "id": "5806756064",
        "name": ""
      },
      "type": "Feature"
    },
    {
      "geometry": {
        "coordinates": [
          21.474449,
          55.9212262
        ],
        "type": "Point"
      },
      "properties": {
        "id": "6632000274",
        "name": "Aibė"
      },
      "type": "Feature"
    },
    {
      "geometry": {
        "coordinates": [
          21.4760653,
          55.7180254
        ],
        "type": "Point"
      },
      "properties": {
        "id": "12118430617",
        "name": "Aibė"
      },
      "type": "Feature"
    },
    {
      "geometry": {
        "coordinates": [
          21.4767273,
          55.9187312
        ],
        "type": "Point"
      },
      "properties": {
        "id": "6632002657",
        "name": "Maisto prekės"
      },
      "type": "Feature"
    },
    {
      "geometry": {
        "coordinates": [
          21.4775011,
          55.718199
        ],
        "type": "Point"
      },
      "properties": {
        "id": "12118430620",
        "name": "Grūstė"
      },
      "type": "Feature"
    },
    {
      "geometry": {
        "coordinates": [
          21.4987034,
          56.8007782
        ],
        "type": "Point"
      },
      "properties": {
        "id": "6702918386",
        "name": ""
      },
      "type": "Feature"
    },
    {
      "geometry": {
        "coordinates": [
          21.530422,
          56.2706236
        ],
        "type": "Point"
      },
      "properties": {
        "id": "1204740456",
        "name": "Maxima X"
      },
      "type": "Feature"
    },
    {
      "geometry": {
        "coordinates": [
          21.5406264,
          56.2689381
        ],
        "type": "Point"
      },
      "properties": {
        "id": "1204722020",
        "name": "Norfa"
      },
      "type": "Feature"
    },
    {
      "geometry": {
        "coordinates": [
          21.5435404,
          55.9265649
        ],
        "type": "Point"
      },
      "properties": {
        "id": "4952546016",
        "name": ""
      },
      "type": "Feature"
    },
    {
      "geometry": {
        "coordinates": [
          21.5464744,
          57.3858272
        ],
        "type": "Point"
      },
      "properties": {
        "id": "285894333",
        "name": "Citro"
      },
      "type": "Feature"
    },
    {
      "geometry": {
        "coordinates": [
          21.549063,
          57.386863
        ],
        "type": "Point"
      },
      "properties": {
        "id": "5916485716",
        "name": "Rimi"
      },
      "type": "Feature"
    },
    {
      "geometry": {
        "coordinates": [
          21.5564777,
          57.3920936
        ],
        "type": "Point"
      },
      "properties": {
        "id": "10700381006",
        "name": "Teņņu bode"
      },
      "type": "Feature"
    },
    {
      "geometry": {
        "coordinates": [
          21.564574,
          57.3923923
        ],
        "type": "Point"
      },
      "properties": {
        "id": "890854481",
        "name": "Mego"
      },
      "type": "Feature"
    },
    {
      "geometry": {
        "coordinates": [
          21.5647858,
          57.3935203
        ],
        "type": "Point"
      },
      "properties": {
        "id": "10693685432",
        "name": "Fix price"
      },
      "type": "Feature"
    },
    {
      "geometry": {
        "coordinates": [
          21.5665025,
          57.3947265
        ],
        "type": "Point"
      },
      "properties": {
        "id": "4174130089",
        "name": "Top"
      },
      "type": "Feature"
    },
    {
      "geometry": {
        "coordinates": [
          21.5675736,
          57.3969166
        ],
        "type": "Point"
      },
      "properties": {
        "id": "12171887015",
        "name": "Saimniecības preces"
      },
      "type": "Feature"
    },
    {
      "geometry": {
        "coordinates": [
          21.5692177,
          57.3906374
        ],
        "type": "Point"
      },
      "properties": {
        "id": "294190681",
        "name": "Maxima"
      },
      "type": "Feature"
    },
    {
      "geometry": {
        "coordinates": [
          21.5692514,
          57.390501
        ],
        "type": "Point"
      },
      "properties": {
        "id": "13543599758",
        "name": "Narvesen"
      },
      "type": "Feature"
    },
    {
      "geometry": {
        "coordinates": [
          21.569329,
          57.3899302
        ],
        "type": "Point"
      },
      "properties": {
        "id": "10691749524",
        "name": "Milda"
      },
      "type": "Feature"
    },
    {
      "geometry": {
        "coordinates": [
          21.5698572,
          57.3948575
        ],
        "type": "Point"
      },
      "properties": {
        "id": "10724494554",
        "name": "Citro"
      },
      "type": "Feature"
    },
    {
      "geometry": {
        "coordinates": [
          21.5700065,
          56.9793952
        ],
        "type": "Point"
      },
      "properties": {
        "id": "6531520592",
        "name": "LaTS"
      },
      "type": "Feature"
    },
    {
      "geometry": {
        "coordinates": [
          21.571333,
          56.0598277
        ],
        "type": "Point"
      },
      "properties": {
        "id": "11630358232",
        "name": "Grūstė"
      },
      "type": "Feature"
    },
    {
      "geometry": {
        "coordinates": [
          21.5727541,
          56.0600149
        ],
        "type": "Point"
      },
      "properties": {
        "id": "2412443660",
        "name": "Aibė"
      },
      "type": "Feature"
    },
    {
      "geometry": {
        "coordinates": [
          21.5732648,
          56.1663681
        ],
        "type": "Point"
      },
      "properties": {
        "id": "2473705772",
        "name": ""
      },
      "type": "Feature"
    },
    {
      "geometry": {
        "coordinates": [
          21.5746093,
          57.3923565
        ],
        "type": "Point"
      },
      "properties": {
        "id": "5477230721",
        "name": "Spar"
      },
      "type": "Feature"
    },
    {
      "geometry": {
        "coordinates": [
          21.5756002,
          57.389594
        ],
        "type": "Point"
      },
      "properties": {
        "id": "11124710360",
        "name": "Mini Citro"
      },
      "type": "Feature"
    },
    {
      "geometry": {
        "coordinates": [
          21.5798948,
          57.3875158
        ],
        "type": "Point"
      },
      "properties": {
        "id": "846710504",
        "name": "Rimi"
      },
      "type": "Feature"
    },
    {
      "geometry": {
        "coordinates": [
          21.5804952,
          57.3761149
        ],
        "type": "Point"
      },
      "properties": {
        "id": "11283248716",
        "name": "Pārtikas veikals"
      },
      "type": "Feature"
    },
    {
      "geometry": {
        "coordinates": [
          21.582998,
          56.4385234
        ],
        "type": "Point"
      },
      "properties": {
        "id": "12820403276",
        "name": "Veikals Zviedru Vārti"
      },
      "type": "Feature"
    },
    {
      "geometry": {
        "coordinates": [
          21.585003,
          57.4044277
        ],
        "type": "Point"
      },
      "properties": {
        "id": "11250831139",
        "name": "Enkurs"
      },
      "type": "Feature"
    },
    {
      "geometry": {
        "coordinates": [
          21.589972,
          57.4026921
        ],
        "type": "Point"
      },
      "properties": {
        "id": "10749480614",
        "name": "Citro"
      },
      "type": "Feature"
    },
    {
      "geometry": {
        "coordinates": [
          21.5968033,
          57.4081724
        ],
        "type": "Point"
      },
      "properties": {
        "id": "4275022661",
        "name": "Elvi"
      },
      "type": "Feature"
    },
    {
      "geometry": {
        "coordinates": [
          21.597266,
          57.4045205
        ],
        "type": "Point"
      },
      "properties": {
        "id": "301224005",
        "name": "Beta"
      },
      "type": "Feature"
    },
    {
      "geometry": {
        "coordinates": [
          21.6040122,
          56.7195848
        ],
        "type": "Point"
      },
      "properties": {
        "id": "5677024544",
        "name": ""
      },
      "type": "Feature"
    },
    {
      "geometry": {
        "coordinates": [
          21.6041682,
          56.7216126
        ],
        "type": "Point"
      },
      "properties": {
        "id": "2596177726",
        "name": "Top!"
      },
      "type": "Feature"
    },
    {
      "geometry": {
        "coordinates": [
          21.6056351,
          56.7182474
        ],
        "type": "Point"
      },
      "properties": {
        "id": "8898176158",
        "name": ""
      },
      "type": "Feature"
    },
    {
      "geometry": {
        "coordinates": [
          21.6064042,
          57.2264737
        ],
        "type": "Point"
      },
      "properties": {
        "id": "3381343551",
        "name": "Miesnieks"
      },
      "type": "Feature"
    },
    {
      "geometry": {
        "coordinates": [
          21.6072753,
          56.7189896
        ],
        "type": "Point"
      },
      "properties": {
        "id": "687062993",
        "name": "Aizpute"
      },
      "type": "Feature"
    },
    {
      "geometry": {
        "coordinates": [
          21.610156,
          57.4011455
        ],
        "type": "Point"
      },
      "properties": {
        "id": "10746622824",
        "name": "Elvi"
      },
      "type": "Feature"
    },
    {
      "geometry": {
        "coordinates": [
          21.6196809,
          57.3617184
        ],
        "type": "Point"
      },
      "properties": {
        "id": "294137742",
        "name": "Elvi"
      },
      "type": "Feature"
    },
    {
      "geometry": {
        "coordinates": [
          21.6542029,
          55.8061019
        ],
        "type": "Point"
      },
      "properties": {
        "id": "7803602691",
        "name": ""
      },
      "type": "Feature"
    },
    {
      "geometry": {
        "coordinates": [
          21.6585862,
          55.8052539
        ],
        "type": "Point"
      },
      "properties": {
        "id": "4463519362",
        "name": "Parduotuvė"
      },
      "type": "Feature"
    },
    {
      "geometry": {
        "coordinates": [
          21.689876,
          57.019923
        ],
        "type": "Point"
      },
      "properties": {
        "id": "8116498704",
        "name": "Citro"
      },
      "type": "Feature"
    },
    {
      "geometry": {
        "coordinates": [
          21.701908,
          56.0989061
        ],
        "type": "Point"
      },
      "properties": {
        "id": "8397277098",
        "name": "Alka"
      },
      "type": "Feature"
    },
    {
      "geometry": {
        "coordinates": [
          21.7199363,
          55.6963168
        ],
        "type": "Point"
      },
      "properties": {
        "id": "8959580111",
        "name": "Čia"
      },
      "type": "Feature"
    },
    {
      "geometry": {
        "coordinates": [
          21.7800074,
          56.307149
        ],
        "type": "Point"
      },
      "properties": {
        "id": "2412443684",
        "name": ""
      },
      "type": "Feature"
    },
    {
      "geometry": {
        "coordinates": [
          21.8004109,
          56.697705
        ],
        "type": "Point"
      },
      "properties": {
        "id": "7671773950",
        "name": ""
      },
      "type": "Feature"
    },
    {
      "geometry": {
        "coordinates": [
          21.8153422,
          56.0432727
        ],
        "type": "Point"
      },
      "properties": {
        "id": "3265724091",
        "name": "Danuva"
      },
      "type": "Feature"
    },
    {
      "geometry": {
        "coordinates": [
          21.8164939,
          56.04273
        ],
        "type": "Point"
      },
      "properties": {
        "id": "3274911662",
        "name": "Čia"
      },
      "type": "Feature"
    },
    {
      "geometry": {
        "coordinates": [
          21.8216768,
          56.8821618
        ],
        "type": "Point"
      },
      "properties": {
        "id": "12137040320",
        "name": ""
      },
      "type": "Feature"
    },
    {
      "geometry": {
        "coordinates": [
          21.8332167,
          55.9188566
        ],
        "type": "Point"
      },
      "properties": {
        "id": "7431333401",
        "name": "Aibė"
      },
      "type": "Feature"
    },
    {
      "geometry": {
        "coordinates": [
          21.8380173,
          55.9025794
        ],
        "type": "Point"
      },
      "properties": {
        "id": "7431333400",
        "name": "Aibė"
      },
      "type": "Feature"
    },
    {
      "geometry": {
        "coordinates": [
          21.843586,
          55.9138903
        ],
        "type": "Point"
      },
      "properties": {
        "id": "2145658067",
        "name": "IKI CENTO Plungė-Turgus"
      },
      "type": "Feature"
    },
    {
      "geometry": {
        "coordinates": [
          21.8461581,
          55.9131723
        ],
        "type": "Point"
      },
      "properties": {
        "id": "2145658086",
        "name": "IKI Plungė"
      },
      "type": "Feature"
    },
    {
      "geometry": {
        "coordinates": [
          21.8518982,
          57.396038
        ],
        "type": "Point"
      },
      "properties": {
        "id": "6564832185",
        "name": "Mini top!"
      },
      "type": "Feature"
    },
    {
      "geometry": {
        "coordinates": [
          21.8549168,
          56.4168781
        ],
        "type": "Point"
      },
      "properties": {
        "id": "3623367882",
        "name": "Top!"
      },
      "type": "Feature"
    },
    {
      "geometry": {
        "coordinates": [
          21.8554021,
          56.4172585
        ],
        "type": "Point"
      },
      "properties": {
        "id": "3623367887",
        "name": "LaTS"
      },
      "type": "Feature"
    },
    {
      "geometry": {
        "coordinates": [
          21.8568919,
          55.9086459
        ],
        "type": "Point"
      },
      "properties": {
        "id": "7824571518",
        "name": "IKI Plungės turgus"
      },
      "type": "Feature"
    },
    {
      "geometry": {
        "coordinates": [
          21.8571573,
          55.9103917
        ],
        "type": "Point"
      },
      "properties": {
        "id": "7431333399",
        "name": "Aibė"
      },
      "type": "Feature"
    },
    {
      "geometry": {
        "coordinates": [
          21.858283,
          55.920533
        ],
        "type": "Point"
      },
      "properties": {
        "id": "7431333398",
        "name": "Aibė"
      },
      "type": "Feature"
    },
    {
      "geometry": {
        "coordinates": [
          21.8701464,
          56.1607589
        ],
        "type": "Point"
      },
      "properties": {
        "id": "2370272895",
        "name": ""
      },
      "type": "Feature"
    },
    {
      "geometry": {
        "coordinates": [
          21.8811581,
          55.8264682
        ],
        "type": "Point"
      },
      "properties": {
        "id": "13185655896",
        "name": "Aibė"
      },
      "type": "Feature"
    },
    {
      "geometry": {
        "coordinates": [
          21.8884406,
          56.6435661
        ],
        "type": "Point"
      },
      "properties": {
        "id": "3709165738",
        "name": "LaTS"
      },
      "type": "Feature"
    },
    {
      "geometry": {
        "coordinates": [
          21.8991074,
          56.5694849
        ],
        "type": "Point"
      },
      "properties": {
        "id": "9083766201",
        "name": "Elva"
      },
      "type": "Feature"
    },
    {
      "geometry": {
        "coordinates": [
          21.9120922,
          57.0159098
        ],
        "type": "Point"
      },
      "properties": {
        "id": "10778632429",
        "name": "Aibe"
      },
      "type": "Feature"
    },
    {
      "geometry": {
        "coordinates": [
          21.9252532,
          55.7239095
        ],
        "type": "Point"
      },
      "properties": {
        "id": "4077280184",
        "name": "Aibė"
      },
      "type": "Feature"
    },
    {
      "geometry": {
        "coordinates": [
          21.9298525,
          55.7256177
        ],
        "type": "Point"
      },
      "properties": {
        "id": "4076976497",
        "name": "Čia"
      },
      "type": "Feature"
    },
    {
      "geometry": {
        "coordinates": [
          21.9302844,
          55.725136
        ],
        "type": "Point"
      },
      "properties": {
        "id": "4077033200",
        "name": "Maisto Prekės, Gėrimai"
      },
      "type": "Feature"
    },
    {
      "geometry": {
        "coordinates": [
          21.9312485,
          55.7222036
        ],
        "type": "Point"
      },
      "properties": {
        "id": "990262670",
        "name": "Iki Žibutė"
      },
      "type": "Feature"
    },
    {
      "geometry": {
        "coordinates": [
          21.931289,
          55.7241064
        ],
        "type": "Point"
      },
      "properties": {
        "id": "4076997256",
        "name": "Vasara"
      },
      "type": "Feature"
    },
    {
      "geometry": {
        "coordinates": [
          21.9456638,
          56.8414585
        ],
        "type": "Point"
      },
      "properties": {
        "id": "13056488171",
        "name": "Aibe"
      },
      "type": "Feature"
    },
    {
      "geometry": {
        "coordinates": [
          21.9476329,
          55.7183108
        ],
        "type": "Point"
      },
      "properties": {
        "id": "8957460395",
        "name": "Parduotuvė"
      },
      "type": "Feature"
    },
    {
      "geometry": {
        "coordinates": [
          21.9555715,
          56.9755795
        ],
        "type": "Point"
      },
      "properties": {
        "id": "3704568539",
        "name": "Mini Rimi"
      },
      "type": "Feature"
    },
    {
      "geometry": {
        "coordinates": [
          21.9558583,
          56.9741154
        ],
        "type": "Point"
      },
      "properties": {
        "id": "12033663740",
        "name": "Mego"
      },
      "type": "Feature"
    },
    {
      "geometry": {
        "coordinates": [
          21.9575609,
          56.9663962
        ],
        "type": "Point"
      },
      "properties": {
        "id": "4383387193",
        "name": "Narvesen"
      },
      "type": "Feature"
    },
    {
      "geometry": {
        "coordinates": [
          21.9578838,
          56.973438
        ],
        "type": "Point"
      },
      "properties": {
        "id": "3704562213",
        "name": "Elvi"
      },
      "type": "Feature"
    },
    {
      "geometry": {
        "coordinates": [
          21.9588578,
          56.9670401
        ],
        "type": "Point"
      },
      "properties": {
        "id": "846636835",
        "name": "Rimi"
      },
      "type": "Feature"
    },
    {
      "geometry": {
        "coordinates": [
          21.9601518,
          56.9671115
        ],
        "type": "Point"
      },
      "properties": {
        "id": "9102176712",
        "name": "Maxima X"
      },
      "type": "Feature"
    },
    {
      "geometry": {
        "coordinates": [
          21.9605007,
          56.9696277
        ],
        "type": "Point"
      },
      "properties": {
        "id": "11124688104",
        "name": "Citro"
      },
      "type": "Feature"
    },
    {
      "geometry": {
        "coordinates": [
          21.9616031,
          56.9692156
        ],
        "type": "Point"
      },
      "properties": {
        "id": "12750164687",
        "name": "top!"
      },
      "type": "Feature"
    },
    {
      "geometry": {
        "coordinates": [
          21.9659497,
          56.9641007
        ],
        "type": "Point"
      },
      "properties": {
        "id": "9133039301",
        "name": "Saules ieleja"
      },
      "type": "Feature"
    },
    {
      "geometry": {
        "coordinates": [
          21.9666351,
          56.9685096
        ],
        "type": "Point"
      },
      "properties": {
        "id": "10807314683",
        "name": "Saldo"
      },
      "type": "Feature"
    },
    {
      "geometry": {
        "coordinates": [
          21.9854346,
          56.958843
        ],
        "type": "Point"
      },
      "properties": {
        "id": "8386726462",
        "name": "Aibe"
      },
      "type": "Feature"
    },
    {
      "geometry": {
        "coordinates": [
          21.9875539,
          56.9712456
        ],
        "type": "Point"
      },
      "properties": {
        "id": "4284360989",
        "name": "Citro"
      },
      "type": "Feature"
    },
    {
      "geometry": {
        "coordinates": [
          21.9909931,
          56.9589986
        ],
        "type": "Point"
      },
      "properties": {
        "id": "10992226651",
        "name": "Eldo"
      },
      "type": "Feature"
    },
    {
      "geometry": {
        "coordinates": [
          22.0030098,
          55.8826985
        ],
        "type": "Point"
      },
      "properties": {
        "id": "8951527686",
        "name": "Agotos Krautuvėlė"
      },
      "type": "Feature"
    },
    {
      "geometry": {
        "coordinates": [
          22.0105217,
          56.1096429
        ],
        "type": "Point"
      },
      "properties": {
        "id": "12123147124",
        "name": ""
      },
      "type": "Feature"
    },
    {
      "geometry": {
        "coordinates": [
          22.0112173,
          56.1092736
        ],
        "type": "Point"
      },
      "properties": {
        "id": "4734811831",
        "name": "Aibė"
      },
      "type": "Feature"
    },
    {
      "geometry": {
        "coordinates": [
          22.0114668,
          56.109147
        ],
        "type": "Point"
      },
      "properties": {
        "id": "12123118191",
        "name": "Cedronas"
      },
      "type": "Feature"
    },
    {
      "geometry": {
        "coordinates": [
          22.0117503,
          56.1086293
        ],
        "type": "Point"
      },
      "properties": {
        "id": "12123118192",
        "name": "Pagardenis"
      },
      "type": "Feature"
    },
    {
      "geometry": {
        "coordinates": [
          22.02243,
          57.2814354
        ],
        "type": "Point"
      },
      "properties": {
        "id": "889393039",
        "name": "LaTS"
      },
      "type": "Feature"
    },
    {
      "geometry": {
        "coordinates": [
          22.0224464,
          57.2806406
        ],
        "type": "Point"
      },
      "properties": {
        "id": "889392871",
        "name": "Mini top!"
      },
      "type": "Feature"
    },
    {
      "geometry": {
        "coordinates": [
          22.039586,
          55.6831175
        ],
        "type": "Point"
      },
      "properties": {
        "id": "8957369398",
        "name": "Parduotuvė"
      },
      "type": "Feature"
    },
    {
      "geometry": {
        "coordinates": [
          22.0401673,
          57.9753835
        ],
        "type": "Point"
      },
      "properties": {
        "id": "4315358992",
        "name": "Laadla Pood"
      },
      "type": "Feature"
    },
    {
      "geometry": {
        "coordinates": [
          22.0463888,
          56.0311257
        ],
        "type": "Point"
      },
      "properties": {
        "id": "6551034220",
        "name": "Aibė"
      },
      "type": "Feature"
    },
    {
      "geometry": {
        "coordinates": [
          22.0620576,
          56.6792733
        ],
        "type": "Point"
      },
      "properties": {
        "id": "9230026713",
        "name": "Inita"
      },
      "type": "Feature"
    },
    {
      "geometry": {
        "coordinates": [
          22.0701492,
          56.6131601
        ],
        "type": "Point"
      },
      "properties": {
        "id": "12820404490",
        "name": ""
      },
      "type": "Feature"
    },
    {
      "geometry": {
        "coordinates": [
          22.0889524,
          56.1676341
        ],
        "type": "Point"
      },
      "properties": {
        "id": "5853601000",
        "name": ""
      },
      "type": "Feature"
    },
    {
      "geometry": {
        "coordinates": [
          22.0917088,
          56.1677957
        ],
        "type": "Point"
      },
      "properties": {
        "id": "13617406366",
        "name": ""
      },
      "type": "Feature"
    },
    {
      "geometry": {
        "coordinates": [
          22.1548886,
          57.2183853
        ],
        "type": "Point"
      },
      "properties": {
        "id": "7658648208",
        "name": "Grāfs Morics"
      },
      "type": "Feature"
    },
    {
      "geometry": {
        "coordinates": [
          22.1720685,
          57.2467032
        ],
        "type": "Point"
      },
      "properties": {
        "id": "12103122488",
        "name": "Kool"
      },
      "type": "Feature"
    },
    {
      "geometry": {
        "coordinates": [
          22.2065278,
          55.8392848
        ],
        "type": "Point"
      },
      "properties": {
        "id": "8951892307",
        "name": ""
      },
      "type": "Feature"
    },
    {
      "geometry": {
        "coordinates": [
          22.2070155,
          55.8395299
        ],
        "type": "Point"
      },
      "properties": {
        "id": "8951911691",
        "name": ""
      },
      "type": "Feature"
    },
    {
      "geometry": {
        "coordinates": [
          22.2358775,
          55.980652
        ],
        "type": "Point"
      },
      "properties": {
        "id": "10127890672",
        "name": "Rimi"
      },
      "type": "Feature"
    },
    {
      "geometry": {
        "coordinates": [
          22.2500437,
          55.9839559
        ],
        "type": "Point"
      },
      "properties": {
        "id": "1001230077",
        "name": "Tulpė"
      },
      "type": "Feature"
    },
    {
      "geometry": {
        "coordinates": [
          22.2502783,
          55.9865198
        ],
        "type": "Point"
      },
      "properties": {
        "id": "4460343394",
        "name": "MAXIMA X"
      },
      "type": "Feature"
    },
    {
      "geometry": {
        "coordinates": [
          22.2515402,
          55.9869726
        ],
        "type": "Point"
      },
      "properties": {
        "id": "4460391611",
        "name": "MOKI VEŽI"
      },
      "type": "Feature"
    },
    {
      "geometry": {
        "coordinates": [
          22.2674516,
          55.9744549
        ],
        "type": "Point"
      },
      "properties": {
        "id": "6782379785",
        "name": "MON"
      },
      "type": "Feature"
    },
    {
      "geometry": {
        "coordinates": [
          22.2724977,
          55.9744406
        ],
        "type": "Point"
      },
      "properties": {
        "id": "11823884369",
        "name": "Norfa XL"
      },
      "type": "Feature"
    },
    {
      "geometry": {
        "coordinates": [
          22.2730435,
          57.2171027
        ],
        "type": "Point"
      },
      "properties": {
        "id": "5868398388",
        "name": "Top veikals"
      },
      "type": "Feature"
    },
    {
      "geometry": {
        "coordinates": [
          22.2939199,
          57.0687141
        ],
        "type": "Point"
      },
      "properties": {
        "id": "4284360990",
        "name": "Citro"
      },
      "type": "Feature"
    },
    {
      "geometry": {
        "coordinates": [
          22.3054884,
          56.2625927
        ],
        "type": "Point"
      },
      "properties": {
        "id": "3741023509",
        "name": ""
      },
      "type": "Feature"
    },
    {
      "geometry": {
        "coordinates": [
          22.311223,
          56.2646573
        ],
        "type": "Point"
      },
      "properties": {
        "id": "3741035918",
        "name": ""
      },
      "type": "Feature"
    },
    {
      "geometry": {
        "coordinates": [
          22.3256829,
          56.342628
        ],
        "type": "Point"
      },
      "properties": {
        "id": "5834110501",
        "name": "Apynys"
      },
      "type": "Feature"
    },
    {
      "geometry": {
        "coordinates": [
          22.3257769,
          56.3081325
        ],
        "type": "Point"
      },
      "properties": {
        "id": "2031786334",
        "name": "Grūstė - Ąžuolas"
      },
      "type": "Feature"
    },
    {
      "geometry": {
        "coordinates": [
          22.3373427,
          56.3041856
        ],
        "type": "Point"
      },
      "properties": {
        "id": "709009579",
        "name": "Putinas"
      },
      "type": "Feature"
    },
    {
      "geometry": {
        "coordinates": [
          22.3375966,
          56.3016342
        ],
        "type": "Point"
      },
      "properties": {
        "id": "8509962651",
        "name": "Mere"
      },
      "type": "Feature"
    },
    {
      "geometry": {
        "coordinates": [
          22.3402664,
          56.3173164
        ],
        "type": "Point"
      },
      "properties": {
        "id": "441351192",
        "name": "Maxima XX"
      },
      "type": "Feature"
    },
    {
      "geometry": {
        "coordinates": [
          22.3409569,
          56.3035704
        ],
        "type": "Point"
      },
      "properties": {
        "id": "11515767232",
        "name": "Iki"
      },
      "type": "Feature"
    },
    {
      "geometry": {
        "coordinates": [
          22.3484836,
          56.3035055
        ],
        "type": "Point"
      },
      "properties": {
        "id": "1539223859",
        "name": "Maxima X"
      },
      "type": "Feature"
    },
    {
      "geometry": {
        "coordinates": [
          22.3493037,
          57.5067257
        ],
        "type": "Point"
      },
      "properties": {
        "id": "1567060361",
        "name": "Tonuss un partneri"
      },
      "type": "Feature"
    },
    {
      "geometry": {
        "coordinates": [
          22.3514081,
          57.5043923
        ],
        "type": "Point"
      },
      "properties": {
        "id": "7612340610",
        "name": "Citro"
      },
      "type": "Feature"
    },
    {
      "geometry": {
        "coordinates": [
          22.3516164,
          57.5099341
        ],
        "type": "Point"
      },
      "properties": {
        "id": "830401165",
        "name": "Citro"
      },
      "type": "Feature"
    },
    {
      "geometry": {
        "coordinates": [
          22.3698337,
          55.7416677
        ],
        "type": "Point"
      },
      "properties": {
        "id": "3831813657",
        "name": "Parduotuvė"
      },
      "type": "Feature"
    },
    {
      "geometry": {
        "coordinates": [
          22.3710102,
          55.7418113
        ],
        "type": "Point"
      },
      "properties": {
        "id": "3831796368",
        "name": "Grūstė"
      },
      "type": "Feature"
    },
    {
      "geometry": {
        "coordinates": [
          22.3723965,
          55.7422022
        ],
        "type": "Point"
      },
      "properties": {
        "id": "4894949440",
        "name": "Krautuvė"
      },
      "type": "Feature"
    },
    {
      "geometry": {
        "coordinates": [
          22.3725389,
          55.7417299
        ],
        "type": "Point"
      },
      "properties": {
        "id": "3831815729",
        "name": "Parduotuvė"
      },
      "type": "Feature"
    },
    {
      "geometry": {
        "coordinates": [
          22.3783499,
          55.8168374
        ],
        "type": "Point"
      },
      "properties": {
        "id": "13071136302",
        "name": "Čia"
      },
      "type": "Feature"
    },
    {
      "geometry": {
        "coordinates": [
          22.3842867,
          56.8548032
        ],
        "type": "Point"
      },
      "properties": {
        "id": "9092316734",
        "name": "Pārsla"
      },
      "type": "Feature"
    },
    {
      "geometry": {
        "coordinates": [
          22.3947596,
          56.9504058
        ],
        "type": "Point"
      },
      "properties": {
        "id": "7684944868",
        "name": "Aibe"
      },
      "type": "Feature"
    },
    {
      "geometry": {
        "coordinates": [
          22.3980477,
          56.9505535
        ],
        "type": "Point"
      },
      "properties": {
        "id": "7683087355",
        "name": "Vītoli"
      },
      "type": "Feature"
    },
    {
      "geometry": {
        "coordinates": [
          22.4052131,
          56.2360007
        ],
        "type": "Point"
      },
      "properties": {
        "id": "2926320172",
        "name": "Parduotuvė"
      },
      "type": "Feature"
    },
    {
      "geometry": {
        "coordinates": [
          22.44591,
          56.694105
        ],
        "type": "Point"
      },
      "properties": {
        "id": "10870906305",
        "name": "Spar"
      },
      "type": "Feature"
    },
    {
      "geometry": {
        "coordinates": [
          22.4501893,
          56.6947419
        ],
        "type": "Point"
      },
      "properties": {
        "id": "10870891905",
        "name": "Citro"
      },
      "type": "Feature"
    },
    {
      "geometry": {
        "coordinates": [
          22.4767614,
          56.6833254
        ],
        "type": "Point"
      },
      "properties": {
        "id": "4447227140",
        "name": ""
      },
      "type": "Feature"
    },
    {
      "geometry": {
        "coordinates": [
          22.4814961,
          56.6668168
        ],
        "type": "Point"
      },
      "properties": {
        "id": "3266787995",
        "name": "Kaiva"
      },
      "type": "Feature"
    },
    {
      "geometry": {
        "coordinates": [
          22.4836349,
          56.6739001
        ],
        "type": "Point"
      },
      "properties": {
        "id": "3623144538",
        "name": "Caps"
      },
      "type": "Feature"
    },
    {
      "geometry": {
        "coordinates": [
          22.4846226,
          55.7709634
        ],
        "type": "Point"
      },
      "properties": {
        "id": "7823939222",
        "name": ""
      },
      "type": "Feature"
    },
    {
      "geometry": {
        "coordinates": [
          22.4857299,
          56.6723621
        ],
        "type": "Point"
      },
      "properties": {
        "id": "2363002138",
        "name": "Elvi"
      },
      "type": "Feature"
    },
    {
      "geometry": {
        "coordinates": [
          22.4899049,
          56.6684618
        ],
        "type": "Point"
      },
      "properties": {
        "id": "8839688202",
        "name": "Maxima XX"
      },
      "type": "Feature"
    },
    {
      "geometry": {
        "coordinates": [
          22.4918757,
          56.6631969
        ],
        "type": "Point"
      },
      "properties": {
        "id": "530777595",
        "name": ""
      },
      "type": "Feature"
    },
    {
      "geometry": {
        "coordinates": [
          22.4935675,
          56.6640903
        ],
        "type": "Point"
      },
      "properties": {
        "id": "1911384723",
        "name": "FixPrice"
      },
      "type": "Feature"
    },
    {
      "geometry": {
        "coordinates": [
          22.4937582,
          57.3441175
        ],
        "type": "Point"
      },
      "properties": {
        "id": "7305817715",
        "name": "Citro"
      },
      "type": "Feature"
    },
    {
      "geometry": {
        "coordinates": [
          22.4945832,
          56.6664658
        ],
        "type": "Point"
      },
      "properties": {
        "id": "530777649",
        "name": "Rimi"
      },
      "type": "Feature"
    },
    {
      "geometry": {
        "coordinates": [
          22.495542,
          56.6654631
        ],
        "type": "Point"
      },
      "properties": {
        "id": "530777632",
        "name": "Maxima X"
      },
      "type": "Feature"
    },
    {
      "geometry": {
        "coordinates": [
          22.4958935,
          56.6637488
        ],
        "type": "Point"
      },
      "properties": {
        "id": "8184912058",
        "name": "Atvars"
      },
      "type": "Feature"
    },
    {
      "geometry": {
        "coordinates": [
          22.4961649,
          56.665803
        ],
        "type": "Point"
      },
      "properties": {
        "id": "530777638",
        "name": "top!"
      },
      "type": "Feature"
    },
    {
      "geometry": {
        "coordinates": [
          22.496298,
          56.6656356
        ],
        "type": "Point"
      },
      "properties": {
        "id": "1911384731",
        "name": "Action"
      },
      "type": "Feature"
    },
    {
      "geometry": {
        "coordinates": [
          22.4999672,
          56.6663343
        ],
        "type": "Point"
      },
      "properties": {
        "id": "3266695204",
        "name": "top!"
      },
      "type": "Feature"
    },
    {
      "geometry": {
        "coordinates": [
          22.5007853,
          57.3452205
        ],
        "type": "Point"
      },
      "properties": {
        "id": "7305818673",
        "name": "Kurzemīte"
      },
      "type": "Feature"
    },
    {
      "geometry": {
        "coordinates": [
          22.5109389,
          55.8412688
        ],
        "type": "Point"
      },
      "properties": {
        "id": "13071284001",
        "name": "Čia"
      },
      "type": "Feature"
    },
    {
      "geometry": {
        "coordinates": [
          22.5166198,
          55.8408538
        ],
        "type": "Point"
      },
      "properties": {
        "id": "13071284301",
        "name": ""
      },
      "type": "Feature"
    },
    {
      "geometry": {
        "coordinates": [
          22.5170213,
          56.2328515
        ],
        "type": "Point"
      },
      "properties": {
        "id": "5802203671",
        "name": ""
      },
      "type": "Feature"
    },
    {
      "geometry": {
        "coordinates": [
          22.5171071,
          56.232194
        ],
        "type": "Point"
      },
      "properties": {
        "id": "5802203675",
        "name": "Aibė"
      },
      "type": "Feature"
    },
    {
      "geometry": {
        "coordinates": [
          22.5269508,
          55.8917719
        ],
        "type": "Point"
      },
      "properties": {
        "id": "6297616939",
        "name": "Čia"
      },
      "type": "Feature"
    },
    {
      "geometry": {
        "coordinates": [
          22.5345895,
          57.1456764
        ],
        "type": "Point"
      },
      "properties": {
        "id": "4059209636",
        "name": "Elvi"
      },
      "type": "Feature"
    },
    {
      "geometry": {
        "coordinates": [
          22.5354484,
          57.1470308
        ],
        "type": "Point"
      },
      "properties": {
        "id": "4059205064",
        "name": "top!"
      },
      "type": "Feature"
    },
    {
      "geometry": {
        "coordinates": [
          22.5366766,
          57.1297975
        ],
        "type": "Point"
      },
      "properties": {
        "id": "11388510877",
        "name": "Elvi"
      },
      "type": "Feature"
    },
    {
      "geometry": {
        "coordinates": [
          22.5557901,
          57.1923229
        ],
        "type": "Point"
      },
      "properties": {
        "id": "5821173681",
        "name": "LaTS"
      },
      "type": "Feature"
    },
    {
      "geometry": {
        "coordinates": [
          22.5604892,
          56.9228329
        ],
        "type": "Point"
      },
      "properties": {
        "id": "8519086681",
        "name": "Vītoli AMI"
      },
      "type": "Feature"
    },
    {
      "geometry": {
        "coordinates": [
          22.5653244,
          56.6843077
        ],
        "type": "Point"
      },
      "properties": {
        "id": "10127875263",
        "name": "Citro"
      },
      "type": "Feature"
    },
    {
      "geometry": {
        "coordinates": [
          22.5666692,
          56.6836788
        ],
        "type": "Point"
      },
      "properties": {
        "id": "2258564200",
        "name": "Mego"
      },
      "type": "Feature"
    },
    {
      "geometry": {
        "coordinates": [
          22.5683345,
          56.6803197
        ],
        "type": "Point"
      },
      "properties": {
        "id": "12820392811",
        "name": "mini top!"
      },
      "type": "Feature"
    },
    {
      "geometry": {
        "coordinates": [
          22.5685787,
          55.9698537
        ],
        "type": "Point"
      },
      "properties": {
        "id": "5391106508",
        "name": "Parduotuvė"
      },
      "type": "Feature"
    },
    {
      "geometry": {
        "coordinates": [
          22.5711167,
          57.0463227
        ],
        "type": "Point"
      },
      "properties": {
        "id": "5802029075",
        "name": "Citro"
      },
      "type": "Feature"
    },
    {
      "geometry": {
        "coordinates": [
          22.5737996,
          57.0449074
        ],
        "type": "Point"
      },
      "properties": {
        "id": "8851162897",
        "name": "Katlauki"
      },
      "type": "Feature"
    },
    {
      "geometry": {
        "coordinates": [
          22.5744426,
          57.0451219
        ],
        "type": "Point"
      },
      "properties": {
        "id": "2537746451",
        "name": "Mini Citro"
      },
      "type": "Feature"
    },
    {
      "geometry": {
        "coordinates": [
          22.5750543,
          57.0446997
        ],
        "type": "Point"
      },
      "properties": {
        "id": "5802029072",
        "name": "Saldo"
      },
      "type": "Feature"
    },
    {
      "geometry": {
        "coordinates": [
          22.5765188,
          57.2468655
        ],
        "type": "Point"
      },
      "properties": {
        "id": "11005928805",
        "name": "Spicais"
      },
      "type": "Feature"
    },
    {
      "geometry": {
        "coordinates": [
          22.5784734,
          57.2477018
        ],
        "type": "Point"
      },
      "properties": {
        "id": "3881498725",
        "name": "Rimi"
      },
      "type": "Feature"
    },
    {
      "geometry": {
        "coordinates": [
          22.579455,
          57.2512759
        ],
        "type": "Point"
      },
      "properties": {
        "id": "7115287011",
        "name": "Citro"
      },
      "type": "Feature"
    },
    {
      "geometry": {
        "coordinates": [
          22.5814121,
          57.2464194
        ],
        "type": "Point"
      },
      "properties": {
        "id": "9893638317",
        "name": "Rika"
      },
      "type": "Feature"
    },
    {
      "geometry": {
        "coordinates": [
          22.5816616,
          57.7379921
        ],
        "type": "Point"
      },
      "properties": {
        "id": "1206264044",
        "name": "Citro"
      },
      "type": "Feature"
    },
    {
      "geometry": {
        "coordinates": [
          22.5837229,
          56.0564827
        ],
        "type": "Point"
      },
      "properties": {
        "id": "6572407361",
        "name": ""
      },
      "type": "Feature"
    },
    {
      "geometry": {
        "coordinates": [
          22.5847534,
          57.239288
        ],
        "type": "Point"
      },
      "properties": {
        "id": "519656052",
        "name": "Maxima"
      },
      "type": "Feature"
    },
    {
      "geometry": {
        "coordinates": [
          22.5866323,
          57.2447489
        ],
        "type": "Point"
      },
      "properties": {
        "id": "3788464215",
        "name": "Rimi"
      },
      "type": "Feature"
    },
    {
      "geometry": {
        "coordinates": [
          22.5877921,
          57.2423593
        ],
        "type": "Point"
      },
      "properties": {
        "id": "7655531685",
        "name": "Citro"
      },
      "type": "Feature"
    },
    {
      "geometry": {
        "coordinates": [
          22.590293,
          57.3730569
        ],
        "type": "Point"
      },
      "properties": {
        "id": "1652584436",
        "name": ""
      },
      "type": "Feature"
    },
    {
      "geometry": {
        "coordinates": [
          22.5910755,
          56.9783285
        ],
        "type": "Point"
      },
      "properties": {
        "id": "4182367705",
        "name": "Vītoli AMI"
      },
      "type": "Feature"
    },
    {
      "geometry": {
        "coordinates": [
          22.5919566,
          57.3713617
        ],
        "type": "Point"
      },
      "properties": {
        "id": "1337374929",
        "name": "top!"
      },
      "type": "Feature"
    },
    {
      "geometry": {
        "coordinates": [
          22.592873,
          57.2445107
        ],
        "type": "Point"
      },
      "properties": {
        "id": "3949464299",
        "name": "Mego"
      },
      "type": "Feature"
    },
    {
      "geometry": {
        "coordinates": [
          22.5965471,
          56.9793664
        ],
        "type": "Point"
      },
      "properties": {
        "id": "4182367708",
        "name": "Kristaps"
      },
      "type": "Feature"
    },
    {
      "geometry": {
        "coordinates": [
          22.5974188,
          57.245424
        ],
        "type": "Point"
      },
      "properties": {
        "id": "11077190054",
        "name": "Citro"
      },
      "type": "Feature"
    },
    {
      "geometry": {
        "coordinates": [
          22.6000152,
          57.2485156
        ],
        "type": "Point"
      },
      "properties": {
        "id": "1942252190",
        "name": ""
      },
      "type": "Feature"
    },
    {
      "geometry": {
        "coordinates": [
          22.6011821,
          57.424531
        ],
        "type": "Point"
      },
      "properties": {
        "id": "477514626",
        "name": "Mini top!"
      },
      "type": "Feature"
    },
    {
      "geometry": {
        "coordinates": [
          22.6176459,
          56.9618928
        ],
        "type": "Point"
      },
      "properties": {
        "id": "2597013439",
        "name": ""
      },
      "type": "Feature"
    },
    {
      "geometry": {
        "coordinates": [
          22.6525018,
          55.7812986
        ],
        "type": "Point"
      },
      "properties": {
        "id": "7824316464",
        "name": ""
      },
      "type": "Feature"
    },
    {
      "geometry": {
        "coordinates": [
          22.6910824,
          56.7418007
        ],
        "type": "Point"
      },
      "properties": {
        "id": "12813495163",
        "name": ""
      },
      "type": "Feature"
    },
    {
      "geometry": {
        "coordinates": [
          22.7189128,
          56.0123015
        ],
        "type": "Point"
      },
      "properties": {
        "id": "4614824443",
        "name": "Maisto prekių parduotuvė"
      },
      "type": "Feature"
    },
    {
      "geometry": {
        "coordinates": [
          22.7204057,
          56.0119959
        ],
        "type": "Point"
      },
      "properties": {
        "id": "4614824448",
        "name": "Parduotuvė"
      },
      "type": "Feature"
    },
    {
      "geometry": {
        "coordinates": [
          22.7369674,
          56.8366845
        ],
        "type": "Point"
      },
      "properties": {
        "id": "1912685268",
        "name": ""
      },
      "type": "Feature"
    },
    {
      "geometry": {
        "coordinates": [
          22.7582471,
          57.2266183
        ],
        "type": "Point"
      },
      "properties": {
        "id": "9022796317",
        "name": "Citro"
      },
      "type": "Feature"
    },
    {
      "geometry": {
        "coordinates": [
          22.7806382,
          57.0338356
        ],
        "type": "Point"
      },
      "properties": {
        "id": "451622936",
        "name": "Vitoli"
      },
      "type": "Feature"
    },
    {
      "geometry": {
        "coordinates": [
          22.7904,
          55.9621787
        ],
        "type": "Point"
      },
      "properties": {
        "id": "4606188390",
        "name": ""
      },
      "type": "Feature"
    },
    {
      "geometry": {
        "coordinates": [
          22.7929612,
          56.1510206
        ],
        "type": "Point"
      },
      "properties": {
        "id": "4665389268",
        "name": "Aibė"
      },
      "type": "Feature"
    },
    {
      "geometry": {
        "coordinates": [
          22.7952088,
          56.6484303
        ],
        "type": "Point"
      },
      "properties": {
        "id": "9961905391",
        "name": "Lats"
      },
      "type": "Feature"
    },
    {
      "geometry": {
        "coordinates": [
          22.7958159,
          56.6482715
        ],
        "type": "Point"
      },
      "properties": {
        "id": "9961905389",
        "name": "Aibe"
      },
      "type": "Feature"
    },
    {
      "geometry": {
        "coordinates": [
          22.8011384,
          57.5055748
        ],
        "type": "Point"
      },
      "properties": {
        "id": "5005421012",
        "name": "Maxima"
      },
      "type": "Feature"
    },
    {
      "geometry": {
        "coordinates": [
          22.8028834,
          57.5056145
        ],
        "type": "Point"
      },
      "properties": {
        "id": "4177822938",
        "name": "Citro"
      },
      "type": "Feature"
    },
    {
      "geometry": {
        "coordinates": [
          22.8101838,
          57.5021878
        ],
        "type": "Point"
      },
      "properties": {
        "id": "5422614325",
        "name": "Citro"
      },
      "type": "Feature"
    },
    {
      "geometry": {
        "coordinates": [
          22.8173546,
          57.0672375
        ],
        "type": "Point"
      },
      "properties": {
        "id": "10204486023",
        "name": "Circle K"
      },
      "type": "Feature"
    },
    {
      "geometry": {
        "coordinates": [
          22.8211403,
          57.49738
        ],
        "type": "Point"
      },
      "properties": {
        "id": "9927543501",
        "name": "Astarte"
      },
      "type": "Feature"
    },
    {
      "geometry": {
        "coordinates": [
          22.8491734,
          56.7954164
        ],
        "type": "Point"
      },
      "properties": {
        "id": "12813386147",
        "name": "Aibe"
      },
      "type": "Feature"
    },
    {
      "geometry": {
        "coordinates": [
          22.8826203,
          56.3222505
        ],
        "type": "Point"
      },
      "properties": {
        "id": "12126912236",
        "name": "Iki"
      },
      "type": "Feature"
    },
    {
      "geometry": {
        "coordinates": [
          22.8891209,
          55.8820334
        ],
        "type": "Point"
      },
      "properties": {
        "id": "4607742714",
        "name": "Parduotuvė"
      },
      "type": "Feature"
    },
    {
      "geometry": {
        "coordinates": [
          22.8914584,
          57.452304
        ],
        "type": "Point"
      },
      "properties": {
        "id": "5060176952",
        "name": "Mini Citro"
      },
      "type": "Feature"
    },
    {
      "geometry": {
        "coordinates": [
          22.8921001,
          56.4648852
        ],
        "type": "Point"
      },
      "properties": {
        "id": "1384907137",
        "name": "top!"
      },
      "type": "Feature"
    },
    {
      "geometry": {
        "coordinates": [
          22.892311,
          56.3254481
        ],
        "type": "Point"
      },
      "properties": {
        "id": "7818160885",
        "name": "Aibė"
      },
      "type": "Feature"
    },
    {
      "geometry": {
        "coordinates": [
          22.895772,
          56.4648109
        ],
        "type": "Point"
      },
      "properties": {
        "id": "818760620",
        "name": ""
      },
      "type": "Feature"
    },
    {
      "geometry": {
        "coordinates": [
          22.9061364,
          57.0390777
        ],
        "type": "Point"
      },
      "properties": {
        "id": "683478479",
        "name": "Virši-A"
      },
      "type": "Feature"
    },
    {
      "geometry": {
        "coordinates": [
          22.9064321,
          57.0353245
        ],
        "type": "Point"
      },
      "properties": {
        "id": "2523697149",
        "name": ""
      },
      "type": "Feature"
    },
    {
      "geometry": {
        "coordinates": [
          22.9123394,
          57.0385327
        ],
        "type": "Point"
      },
      "properties": {
        "id": "7597883774",
        "name": "Citro"
      },
      "type": "Feature"
    },
    {
      "geometry": {
        "coordinates": [
          22.9348242,
          56.0033018
        ],
        "type": "Point"
      },
      "properties": {
        "id": "1500341812",
        "name": "Maxima X"
      },
      "type": "Feature"
    },
    {
      "geometry": {
        "coordinates": [
          22.9365667,
          56.0031871
        ],
        "type": "Point"
      },
      "properties": {
        "id": "6987749146",
        "name": ""
      },
      "type": "Feature"
    },
    {
      "geometry": {
        "coordinates": [
          22.9370271,
          56.0067867
        ],
        "type": "Point"
      },
      "properties": {
        "id": "4686579019",
        "name": "Delikatesas"
      },
      "type": "Feature"
    },
    {
      "geometry": {
        "coordinates": [
          22.937483,
          56.0066967
        ],
        "type": "Point"
      },
      "properties": {
        "id": "4686579020",
        "name": "Kuršėnų „Ožiaragis“"
      },
      "type": "Feature"
    },
    {
      "geometry": {
        "coordinates": [
          22.9391909,
          56.0078369
        ],
        "type": "Point"
      },
      "properties": {
        "id": "4543249211",
        "name": "Hedagras"
      },
      "type": "Feature"
    },
    {
      "geometry": {
        "coordinates": [
          22.9395739,
          56.0072884
        ],
        "type": "Point"
      },
      "properties": {
        "id": "4543249276",
        "name": "Maisto prekės"
      },
      "type": "Feature"
    },
    {
      "geometry": {
        "coordinates": [
          22.9411782,
          56.0058674
        ],
        "type": "Point"
      },
      "properties": {
        "id": "7487103417",
        "name": "Aibė"
      },
      "type": "Feature"
    },
    {
      "geometry": {
        "coordinates": [
          22.9421792,
          56.0061798
        ],
        "type": "Point"
      },
      "properties": {
        "id": "4543249212",
        "name": "Ūkinės prekės"
      },
      "type": "Feature"
    },
    {
      "geometry": {
        "coordinates": [
          22.9516774,
          55.988827
        ],
        "type": "Point"
      },
      "properties": {
        "id": "4549009856",
        "name": "Maisto prekių parduotuvė"
      },
      "type": "Feature"
    },
    {
      "geometry": {
        "coordinates": [
          22.9531196,
          55.9870237
        ],
        "type": "Point"
      },
      "properties": {
        "id": "4536037024",
        "name": "Grūstė"
      },
      "type": "Feature"
    },
    {
      "geometry": {
        "coordinates": [
          22.9537706,
          57.3770662
        ],
        "type": "Point"
      },
      "properties": {
        "id": "6574971190",
        "name": ""
      },
      "type": "Feature"
    },
    {
      "geometry": {
        "coordinates": [
          22.9673006,
          56.9096552
        ],
        "type": "Point"
      },
      "properties": {
        "id": "2385683907",
        "name": ""
      },
      "type": "Feature"
    },
    {
      "geometry": {
        "coordinates": [
          22.9691431,
          56.6640673
        ],
        "type": "Point"
      },
      "properties": {
        "id": "6629877485",
        "name": "Elvi"
      },
      "type": "Feature"
    },
    {
      "geometry": {
        "coordinates": [
          22.9707909,
          56.6685755
        ],
        "type": "Point"
      },
      "properties": {
        "id": "2544152263",
        "name": ""
      },
      "type": "Feature"
    },
    {
      "geometry": {
        "coordinates": [
          22.9789583,
          56.0326323
        ],
        "type": "Point"
      },
      "properties": {
        "id": "4578102700",
        "name": "Parduotuvė"
      },
      "type": "Feature"
    },
    {
      "geometry": {
        "coordinates": [
          22.9964658,
          56.875098
        ],
        "type": "Point"
      },
      "properties": {
        "id": "12811952965",
        "name": "Mini top!"
      },
      "type": "Feature"
    },
    {
      "geometry": {
        "coordinates": [
          23.0142048,
          56.7312788
        ],
        "type": "Point"
      },
      "properties": {
        "id": "2567021133",
        "name": "top!"
      },
      "type": "Feature"
    },
    {
      "geometry": {
        "coordinates": [
          23.0144839,
          56.7300982
        ],
        "type": "Point"
      },
      "properties": {
        "id": "12817055268",
        "name": "LaTS"
      },
      "type": "Feature"
    },
    {
      "geometry": {
        "coordinates": [
          23.0381769,
          56.6646897
        ],
        "type": "Point"
      },
      "properties": {
        "id": "1296804160",
        "name": "Mini top!"
      },
      "type": "Feature"
    },
    {
      "geometry": {
        "coordinates": [
          23.0508184,
          55.8294007
        ],
        "type": "Point"
      },
      "properties": {
        "id": "6037583953",
        "name": ""
      },
      "type": "Feature"
    },